[
  {
    "url": "https://learningvision.com/centres/learning-vision-woodlands-hospital/",
    "name": "Learning Vision Woodlands Hospital",
    "address": "17 Woodlands Drive 17, #02-02 Tower E",
    "postal_code": null,
    "lat": 1.4258791,
    "lng": 103.7917525
  },
  {
    "url": "https://learningvision.com/centres/learning-vision-changi-business-park/",
    "name": "Learning Vision Changi Business Park",
    "address": "7 Changi Business Park Vista, #02-01 Soo Kee HQ",
    "postal_code": null,
    "lat": 1.3382725,
    "lng": 103.9652731
  },
  {
    "url": "https://learningvision.com/centres/learning-vision-sunshine-place/",
    "name": "Learning Vision Sunshine Place (Choa Chu Kang)",
    "address": "Block 475 Choa Chu Kang Avenue 3, #02-14 Sunshine Place",
    "postal_code": null,
    "lat": 1.3780266,
    "lng": 103.7389881
  },
  {
    "url": "https://learningvision.com/centres/nuhs/",
    "name": "Learning Vision NUHS",
    "address": "1 Lower Kent Ridge Road, One @ Kent Ridge, #07-01, Singapore 119082<br />",
    "postal_code": "119082",
    "lat": 1.2934298,
    "lng": 103.78453509999997
  },
  {
    "url": "https://learningvision.com/centres/ng-teng-fong-general-hospital/",
    "name": "Learning Vision Ng Teng Fong General Hospital",
    "address": "1 Jurong East Street 21, #01-03 Annexe Block, Ng Teng Fong General Hospital",
    "postal_code": null,
    "lat": 1.3356501,
    "lng": 103.74360990000002
  },
  {
    "url": "https://learningvision.com/centres/ntu/",
    "name": "Learning Vision NTU",
    "address": "Nanyang Technological University, 94 Nanyang Crescent , Singapore 637034<br />",
    "postal_code": "637034",
    "lat": 1.3530177,
    "lng": 103.68925139999999
  },
  {
    "url": "https://learningvision.com/centres/learning-vision-pasir-panjang-habourlink/",
    "name": "Learning Vision Harbourlink Innohub (Pasir Panjang)",
    "address": "61 Alexandra Terrace, #02-11 Harbourlink InnoHub, Singapore 119936",
    "postal_code": "119936",
    "lat": 1.2771267,
    "lng": 103.7978899
  },
  {
    "url": "https://learningvision.com/centres/hwa-chong/",
    "name": "Learning Vision Hwa Chong Institution",
    "address": "673 Bukit Timah Road, Hall D (Childcare Centre) Hwa Chong Institution",
    "postal_code": null,
    "lat": 1.3253962,
    "lng": 103.8007146
  },
  {
    "url": "https://learningvision.com/centres/changi-airport/",
    "name": "Learning Vision Changi Airport (Terminal 3)",
    "address": "65 Airport Boulevard #04-02, Terminal 3, 819663",
    "postal_code": "819663",
    "lat": 1.358604,
    "lng": 103.9899436
  },
  {
    "url": "https://learningvision.com/centres/paya-lebar/",
    "name": "Learning Vision Lifelong Learning Institute (Paya Lebar)",
    "address": "11 Eunos Road 8, #04-04 Lifelong Learning Institute",
    "postal_code": null,
    "lat": 1.3196896,
    "lng": 103.8924922
  },
  {
    "url": "https://learningvision.com/centres/vista-point/",
    "name": "Learning Vision Vista Point (Woodlands)",
    "address": "Block 548 Woodlands Drive 44, #02-20 Vista Point",
    "postal_code": null,
    "lat": 1.4306465,
    "lng": 103.7934798
  },
  {
    "url": "https://learningvision.com/centres/learning-vision-skh-sengkang-general-hospital/",
    "name": "Learning Vision Sengkang General Hospital",
    "address": "1 Anchorvale Street, #04-21 (Lift Lobby C) Sengkang Community Hospital",
    "postal_code": null,
    "lat": 1.3963094,
    "lng": 103.8911356
  },
  {
    "url": "https://learningvision.com/centres/tech-point/",
    "name": "Learning Vision TechPoint (Ang Mo Kio)",
    "address": "10 Ang Mo Kio Street 65, #01-04 Techpoint",
    "postal_code": null,
    "lat": 1.3893778,
    "lng": 103.8492215
  },
  {
    "url": "https://learningvision.com/centres/nanyang-polytechnic/",
    "name": "Learning Vision Nanyang Polytechnic",
    "address": "180 Ang Mo Kio Avenue 8, Block F, Level 2, Unit 1 Nanyang Polytechnic",
    "postal_code": null,
    "lat": 1.3803444,
    "lng": 103.8495722
  },
  {
    "url": "https://learningvision.com/centres/tan-tock-seng-hospital/",
    "name": "Learning Vision Tan Tock Seng Hospital",
    "address": "11 Jalan Tan Tock Seng, Level 4 Tan Tock Seng Hospital",
    "postal_code": null,
    "lat": 1.322579,
    "lng": 103.84621199999992
  }
]